[{"global_id":58937156,"ID":1,"Latitude_WGS84":"55.7343885","AdmArea":"Центральный административный округ","District":"район Замоскворечье","Address":"улица Бахрушина, дом 20","Longitude_WGS84":"37.6359498","Name":"ЭЗС улица Бахрушина, дом 20","geoData":{"type":"Point","coordinates":[37.635949800384,55.734388499755]}},{"global_id":282292364,"ID":7,"Latitude_WGS84":"55.763042","AdmArea":"Центральный административный округ","District":"Тверской район","Address":"город Москва, Глинищевский переулок, дом 6","Longitude_WGS84":"37.609815","Name":"ЭЗС Глинищевский переулок, дом 6","geoData":{"type":"Point","coordinates":[37.609815,55.763042]}},{"global_id":282292416,"ID":8,"Latitude_WGS84":"55.77021","AdmArea":"Центральный административный округ","District":"Тверской район","Address":"улица Малая Дмитровка, дом 15","Longitude_WGS84":"37.60532","Name":"ЭЗС улица Малая Дмитровка, дом 15","geoData":{"type":"Point","coordinates":[37.605319999837,55.770209999877]}},{"global_id":282292417,"ID":9,"Latitude_WGS84":"55.756691","AdmArea":"Центральный административный округ","District":"Пресненский район","Address":"Газетный переулок, дом 1/12","Longitude_WGS84":"37.60753","Name":"ЭЗС Газетный переулок, дом 1/12","geoData":{"type":"Point","coordinates":[37.607530000065,55.756691000022]}},{"global_id":282292370,"ID":13,"Latitude_WGS84":"55.751665","AdmArea":"Центральный административный округ","District":"Таганский район","Address":"город Москва, Большой Николоворобинский переулок, дом 7, строение 2","Longitude_WGS84":"37.648119","Name":"ЭЗС Большой Николоворобинский переулок, дом 7, строение 2","geoData":{"type":"Point","coordinates":[37.648119,55.751665]}},{"global_id":282292371,"ID":14,"Latitude_WGS84":"55.738996","AdmArea":"Центральный административный округ","District":"район Хамовники","Address":"город Москва, улица Остоженка, дом 36","Longitude_WGS84":"37.595418","Name":"ЭЗС улица Остоженка, дом 36","geoData":{"type":"Point","coordinates":[37.595418,55.738996]}},{"global_id":282292423,"ID":16,"Latitude_WGS84":"55.761974","AdmArea":"Центральный административный округ","District":"Тверской район","Address":"Леонтьевский переулок, дом 25","Longitude_WGS84":"37.607225","Name":"ЭЗС Леонтьевский переулок, дом 25(1)","geoData":{"type":"Point","coordinates":[37.607224999568,55.761973999758]}},{"global_id":282292385,"ID":17,"Latitude_WGS84":"55.761954","AdmArea":"Центральный административный округ","District":"Тверской район","Address":"Леонтьевский переулок, дом 25","Longitude_WGS84":"37.607197","Name":"ЭЗС Леонтьевский переулок, дом 25(2)","geoData":{"type":"Point","coordinates":[37.607196999979,55.761954000241]}},{"global_id":282292441,"ID":19,"Latitude_WGS84":"55.762402","AdmArea":"Центральный административный округ","District":"Пресненский район","Address":"город Москва, Большая Бронная улица, дом 14, строение 1","Longitude_WGS84":"37.600217","Name":"ЭЗС улица Большая Бронная, дом 14","geoData":{"type":"Point","coordinates":[37.600217,55.762402]}},{"global_id":282292438,"ID":20,"Latitude_WGS84":"55.735565","AdmArea":"Центральный административный округ","District":"район Якиманка","Address":"город Москва, Мароновский переулок, дом 1/7, строение 1","Longitude_WGS84":"37.610525","Name":"ЭЗС Мароновский переулок, дом 1/7","geoData":{"type":"Point","coordinates":[37.610525,55.735565]}},{"global_id":804026207,"ID":22,"Latitude_WGS84":"55.711677","AdmArea":"Южный административный округ","District":"Даниловский район","Address":"город Москва, улица Серпуховский Вал, дом 4","Longitude_WGS84":"37.619830","Name":"ЭЗС улица Серпуховский Вал №1","geoData":{"type":"Point","coordinates":[37.61983,55.711677]}},{"global_id":804027341,"ID":23,"Latitude_WGS84":"55.711679","AdmArea":"Южный административный округ","District":"Даниловский район","Address":"город Москва, улица Серпуховский Вал, дом 4","Longitude_WGS84":"37.619697","Name":"ЭЗС улица Серпуховский Вал №2","geoData":{"type":"Point","coordinates":[37.619697,55.711679]}},{"global_id":804027528,"ID":24,"Latitude_WGS84":"55.707868","AdmArea":"Южный административный округ","District":"Даниловский район","Address":"город Москва, Автозаводская улица, дом 7","Longitude_WGS84":"37.659885","Name":"ЭЗС Автозаводская улица","geoData":{"type":"Point","coordinates":[37.659885,55.707868]}},{"global_id":804028458,"ID":25,"Latitude_WGS84":"55.761024","AdmArea":"Центральный административный округ","District":"Басманный район","Address":"город Москва, улица Макаренко, дом 1/19","Longitude_WGS84":"37.646220","Name":"ЭЗС улица Макаренко","geoData":{"type":"Point","coordinates":[37.64622,55.761024]}},{"global_id":804029045,"ID":26,"Latitude_WGS84":"55.743640","AdmArea":"Центральный административный округ","District":"Таганский район","Address":"город Москва, Вековая улица, дом 21, строение 1","Longitude_WGS84":"37.674578","Name":"ЭЗС Вековая улица","geoData":{"type":"Point","coordinates":[37.674578,55.74364]}},{"global_id":804036268,"ID":27,"Latitude_WGS84":"55.744164","AdmArea":"Центральный административный округ","District":"Таганский район","Address":"город Москва, улица Александра Солженицына, дом 23А, строение 1","Longitude_WGS84":"37.663031","Name":"ЭЗС улица Александра Солженицына №1","geoData":{"type":"Point","coordinates":[37.663031,55.744164]}},{"global_id":804037071,"ID":28,"Latitude_WGS84":"55.744182","AdmArea":"Центральный административный округ","District":"Таганский район","Address":"город Москва, улица Александра Солженицына, дом 23А, строение 1","Longitude_WGS84":"37.663080","Name":"ЭЗС улица Александра Солженицына №2","geoData":{"type":"Point","coordinates":[37.66308,55.744182]}},{"global_id":844090709,"ID":47,"Latitude_WGS84":"55.739250","AdmArea":"Центральный административный округ","District":"район Якиманка","Address":"город Москва, 1-й Голутвинский переулок, дом 3-5, строение 1","Longitude_WGS84":"37.613719","Name":"ЭЗС 1-й Голутвинский переулок","geoData":{"type":"Point","coordinates":[37.613719,55.73925]}},{"global_id":865366636,"ID":48,"Latitude_WGS84":"55.744266","AdmArea":"Центральный административный округ","District":"Таганский район","Address":"город Москва, Гончарная улица, дом 20/1, строение 1","Longitude_WGS84":"37.648308","Name":"ЭЗС Гончарная улица, дом 20/1, строение 1","geoData":{"type":"Point","coordinates":[37.648308,55.744266]}},{"global_id":865366643,"ID":49,"Latitude_WGS84":"55.735781","AdmArea":"Центральный административный округ","District":"район Якиманка","Address":"город Москва, улица Большая Полянка, дом 28, корпус 1","Longitude_WGS84":"37.6196","Name":"ЭЗС улица Большая Полянка, дом 28","geoData":{"type":"Point","coordinates":[37.6196,55.735781]}},{"global_id":879533754,"ID":50,"Latitude_WGS84":"55.762328","AdmArea":"Центральный административный округ","District":"Пресненский район","Address":"город Москва, улица Красная Пресня, дом 25, строение 2","Longitude_WGS84":"37.565319","Name":"ЭЗС улица Красная Пресня, дом 31","geoData":{"type":"Point","coordinates":[37.565319,55.762328]}},{"global_id":879533849,"ID":51,"Latitude_WGS84":"55.760040","AdmArea":"Центральный административный округ","District":"Басманный район","Address":"город Москва, Большой Казённый переулок, дом 6, строение 1","Longitude_WGS84":"37.655058","Name":"ЭЗС Большой Казенный переулок, дом 6, строение 1","geoData":{"type":"Point","coordinates":[37.655058,55.76004]}},{"global_id":879533905,"ID":52,"Latitude_WGS84":"55.739334","AdmArea":"Центральный административный округ","District":"район Замоскворечье","Address":"город Москва, Большая Татарская улица, дом 26","Longitude_WGS84":"37.633512","Name":"ЭЗС Большая Татарская улица, дом 26","geoData":{"type":"Point","coordinates":[37.633512,55.739334]}},{"global_id":879533951,"ID":53,"Latitude_WGS84":"55.736407","AdmArea":"Центральный административный округ","District":"район Замоскворечье","Address":"город Москва, Озерковская набережная, дом 44","Longitude_WGS84":"37.639494","Name":"ЭЗС Озерковская набережная, дом 44","geoData":{"type":"Point","coordinates":[37.639494,55.736407]}},{"global_id":879534199,"ID":54,"Latitude_WGS84":"55.736384","AdmArea":"Центральный административный округ","District":"район Замоскворечье","Address":"город Москва, Озерковская набережная, дом 44","Longitude_WGS84":"37.639507","Name":"ЭЗС Озерковская набережная, дом 44","geoData":{"type":"Point","coordinates":[37.639507,55.736384]}},{"global_id":879538974,"ID":55,"Latitude_WGS84":"55.758317","AdmArea":"Центральный административный округ","District":"Басманный район","Address":"город Москва, Колпачный переулок, дом 3, строение 2","Longitude_WGS84":"37.643166","Name":"ЭЗС Колпачный переулок, дом 3, строение 2","geoData":{"type":"Point","coordinates":[37.643166,55.758317]}},{"global_id":879543260,"ID":56,"Latitude_WGS84":"55.758297","AdmArea":"Центральный административный округ","District":"Басманный район","Address":"город Москва, Колпачный переулок, дом 3, строение 2","Longitude_WGS84":"37.643146","Name":"ЭЗС Колпачный переулок, дом 3, строение 2","geoData":{"type":"Point","coordinates":[37.643146,55.758297]}},{"global_id":879546282,"ID":57,"Latitude_WGS84":"55.712808","AdmArea":"Южный административный округ","District":"Даниловский район","Address":"город Москва, Восточная улица, дом 11, корпус 1","Longitude_WGS84":"37.658756","Name":"ЭЗС Восточная улица, дом 11","geoData":{"type":"Point","coordinates":[37.658756,55.712808]}},{"global_id":879549161,"ID":58,"Latitude_WGS84":"55.756920","AdmArea":"Центральный административный округ","District":"Басманный район","Address":"город Москва, Хохловский переулок, дом 13, строение 1","Longitude_WGS84":"37.643998","Name":"ЭЗС Хохловский переулок, дом 13","geoData":{"type":"Point","coordinates":[37.643998,55.75692]}},{"global_id":879549179,"ID":59,"Latitude_WGS84":"55.759464","AdmArea":"Центральный административный округ","District":"Басманный район","Address":"город Москва, Потаповский переулок, дом 14","Longitude_WGS84":"37.641554","Name":"ЭЗС Потаповский переулок, дом 14","geoData":{"type":"Point","coordinates":[37.641554,55.759464]}},{"global_id":887216248,"ID":60,"Latitude_WGS84":"55.741622","AdmArea":"Центральный административный округ","District":"район Хамовники","Address":"город Москва, 2-й Обыденский переулок, дом 1А","Longitude_WGS84":"37.604923","Name":"ЭЗС 2-й Обыденский переулок, дом 1А","geoData":{"type":"Point","coordinates":[37.604923,55.741622]}},{"global_id":887220779,"ID":61,"Latitude_WGS84":"55.741978","AdmArea":"Центральный административный округ","District":"район Хамовники","Address":"город Москва, Курсовой переулок, дом 4","Longitude_WGS84":"37.605815","Name":"ЭЗС Курсовой переулок, дом 4","geoData":{"type":"Point","coordinates":[37.605815,55.741978]}},{"global_id":887248855,"ID":62,"Latitude_WGS84":"55.741164","AdmArea":"Центральный административный округ","District":"район Якиманка","Address":"город Москва, Старомонетный переулок, дом 11, строение 1","Longitude_WGS84":"37.618132","Name":"ЭЗС Старомонетный переулок, дом 11","geoData":{"type":"Point","coordinates":[37.618132,55.741164]}},{"global_id":887253671,"ID":63,"Latitude_WGS84":"55.733764","AdmArea":"Центральный административный округ","District":"район Якиманка","Address":"город Москва, Якиманский переулок, дом 6","Longitude_WGS84":"37.609686","Name":"ЭЗС Якиманский переулок, дом 6","geoData":{"type":"Point","coordinates":[37.609686,55.733764]}},{"global_id":889021397,"ID":64,"Latitude_WGS84":"55.733735","AdmArea":"Центральный административный округ","District":"район Якиманка","Address":"город Москва, Якиманский переулок, дом 6","Longitude_WGS84":"37.609678","Name":"Якиманский переулок, дом 6","geoData":{"type":"Point","coordinates":[37.609678,55.733735]}}]